{
  "updated": "2026-04-22",
  "locations": [
    {
      "id": "auckland-09thrive",
      "name": "09 Thrive",
      "city": "Auckland",
      "country": "NZ",
      "address": "2/49 Sainsbury Road, Mount Albert, Auckland",
      "lat": -36.8858,
      "lng": 174.716,
      "programs": [
        "program"
      ],
      "coaches": [
        "awat-kakai",
        "havana-beal",
        "kate-maloney",
        "kieran-cordelle",
        "mike-hardgrave",
        "renee-thornley",
        "nadja-kumerich",
        "shaney-olivier",
        "michael-hynard"
      ],
      "photo": "",
      "notes": ""
    },
    {
      "id": "auckland-physio-co",
      "name": "The Physio Co",
      "city": "Auckland",
      "country": "NZ",
      "address": "46a Porana Rd, Wairua Valley, Auckland",
      "lat": -36.7782,
      "lng": 174.7385,
      "programs": [
        "program"
      ],
      "coaches": [
        "nadja-kumerich",
        "kieran-cordelle",
        "michael-hynard"
      ],
      "photo": "",
      "notes": ""
    },
    {
      "id": "auckland-hoop33",
      "name": "Hoop33",
      "city": "Auckland",
      "country": "NZ",
      "address": "165-169 Target Road, Wairau Valley, Auckland",
      "lat": -36.775,
      "lng": 174.737,
      "programs": [],
      "coaches": [
        "michael-hynard"
      ],
      "photo": "",
      "notes": ""
    },
    {
      "id": "auckland-aut-northshore",
      "name": "AUT North Shore Campus (Gym)",
      "city": "Auckland",
      "country": "NZ",
      "address": "AH Building, 90 Akoranga Drive, Northcote, Auckland",
      "lat": -36.79,
      "lng": 174.75,
      "programs": [
        "program"
      ],
      "coaches": [
        "kieran-cordelle",
        "nadja-kumerich",
        "havana-beal",
        "shaney-olivier",
        "michael-hynard"
      ],
      "photo": "",
      "notes": ""
    },
    {
      "id": "auckland-ymca",
      "name": "The Y Auckland",
      "city": "Auckland",
      "country": "NZ",
      "address": "149 Greys Avenue, Auckland Central, Auckland",
      "lat": -36.8545,
      "lng": 174.763,
      "programs": [
        "program"
      ],
      "coaches": [
        "awat-kakai",
        "havana-beal",
        "kate-maloney",
        "kieran-cordelle",
        "mike-hardgrave",
        "nadja-kumerich",
        "renee-thornley",
        "samantha-glenny",
        "yuan-pu",
        "michael-hynard"
      ],
      "photo": "",
      "notes": ""
    },
    {
      "id": "auckland-uoa",
      "name": "University of Auckland",
      "city": "Auckland",
      "country": "NZ",
      "address": "Building 907, Department of Exercise Sciences, Suiter Street, Newmarket, Auckland",
      "lat": -36.8641,
      "lng": 174.77,
      "programs": [
        "tui"
      ],
      "coaches": [
        "merryn-robertson",
        "michael-hynard"
      ],
      "photo": "",
      "notes": "FAM™TŪI only"
    },
    {
      "id": "christchurch-eaden",
      "name": "Eaden Project",
      "city": "Christchurch",
      "country": "NZ",
      "address": "205a Wordsworth Street, Christchurch Central City, Christchurch 8023",
      "lat": -43.5341,
      "lng": 172.6343,
      "programs": [
        "program"
      ],
      "coaches": [
        "connor-dann",
        "ollie-smith",
        "skye-churchill"
      ],
      "photo": "",
      "notes": ""
    },
    {
      "id": "tauranga-placeholder",
      "name": "Tauranga Venue",
      "city": "Tauranga",
      "country": "NZ",
      "address": "",
      "lat": -37.6878,
      "lng": 176.1651,
      "programs": [
        "program"
      ],
      "coaches": [
        "diogo-freire",
        "jacqueline-hay"
      ],
      "photo": "",
      "notes": ""
    },
    {
      "id": "dunedin-placeholder",
      "name": "Dunedin Venue",
      "city": "Dunedin",
      "country": "NZ",
      "address": "",
      "lat": -45.8788,
      "lng": 170.5028,
      "programs": [
        "program"
      ],
      "coaches": [
        "henry-king"
      ],
      "photo": "",
      "notes": ""
    },
    {
      "id": "whangarei-hot",
      "name": "House of Training",
      "city": "Whangārei",
      "country": "NZ",
      "address": "17 Finlayson Street, Whangārei",
      "lat": -35.7256,
      "lng": 174.324,
      "programs": [
        "program"
      ],
      "coaches": [
        "renee-thornley"
      ],
      "photo": "",
      "notes": ""
    },
    {
      "id": "kerikeri-venue",
      "name": "Kerikeri Venue",
      "city": "Kerikeri",
      "country": "NZ",
      "address": "22 Sammaree Place, Kerikeri",
      "lat": -35.2235,
      "lng": 173.955,
      "programs": [
        "jam"
      ],
      "coaches": [
        "zoe-taylor"
      ],
      "photo": "",
      "notes": ""
    },
    {
      "id": "crossfit-henleaze",
      "name": "CrossFit Henleaze",
      "city": "Bristol",
      "country": "UK",
      "address": "73 Henleaze Road, Bristol, United Kingdom BS9 4JS",
      "lat": 51.4545,
      "lng": -2.5879,
      "programs": [
        "program"
      ],
      "coaches": [
        "becca-percy"
      ],
      "photo": "",
      "notes": ""
    },
    {
      "id": "explore-wellbeing-city-church",
      "name": "Explore Wellbeing City Church",
      "city": "Auckland",
      "country": "NZ",
      "address": "6/133 Central Park Drive, Henderson, Auckland 0610",
      "lat": -36.853395,
      "lng": 174.63852,
      "programs": [
        "jam"
      ],
      "coaches": [
        "brianna-king",
        "grace-dunn",
        "havana-beal"
      ],
      "photo": "",
      "notes": "",
      "sortOrder": 13
    },
    {
      "id": "knoxfit",
      "name": "KnoxFit",
      "city": "Auckland",
      "country": "NZ",
      "address": "16a Webber Street AUCKLAND 1022",
      "lat": -36.853821,
      "lng": 174.728691,
      "programs": [
        "program"
      ],
      "coaches": [
        "awat-kakai",
        "havana-beal",
        "kate-maloney",
        "kieran-cordelle",
        "mike-hardgrave",
        "nadja-kumerich",
        "renee-thornley",
        "michael-hynard"
      ],
      "photo": "",
      "notes": "",
      "sortOrder": 14
    },
    {
      "id": "bft-browns-bay",
      "name": "BFT Browns Bay",
      "city": "Auckland",
      "country": "NZ",
      "address": "BFT Browns Bay, 87 Clyde Road, Browns Bay, Auckland",
      "lat": -36.714032,
      "lng": 174.748582,
      "programs": [
        "program"
      ],
      "coaches": [
        "kieran-cordelle",
        "shaney-olivier"
      ],
      "photo": "",
      "notes": ""
    },
    {
      "id": "auckland-westwave-placeholder",
      "name": "WestWave",
      "city": "Auckland",
      "country": "NZ",
      "address": "",
      "lat": -36.8795,
      "lng": 174.6272,
      "programs": [
        "program"
      ],
      "coaches": [
        "mike-hardgrave"
      ],
      "photo": "",
      "notes": ""
    }
  ]
}
