{
  "updated": "2026-03-12",
  "locations": [
    {
      "id": "auckland-09thrive",
      "name": "09 Thrive",
      "city": "Auckland",
      "country": "NZ",
      "address": "2/49 Sainsbury Road, Mount Albert, Auckland",
      "lat": -36.8858,
      "lng": 174.716,
      "programs": [],
      "coaches": [],
      "photo": "",
      "notes": "Coach assignments pending — Michael to confirm"
    },
    {
      "id": "auckland-physio-co",
      "name": "The Physio Co",
      "city": "Auckland",
      "country": "NZ",
      "address": "46a Porana Rd, Wairua Valley, Auckland",
      "lat": -36.7782,
      "lng": 174.7385,
      "programs": [],
      "coaches": [],
      "photo": "",
      "notes": "Coach assignments pending — Michael to confirm"
    },
    {
      "id": "auckland-hoop33",
      "name": "Hoop33",
      "city": "Auckland",
      "country": "NZ",
      "address": "165-169 Target Road, Wairau Valley, Auckland",
      "lat": -36.775,
      "lng": 174.737,
      "programs": [],
      "coaches": [],
      "photo": "",
      "notes": "Coach assignments pending — Michael to confirm"
    },
    {
      "id": "auckland-aut-northshore",
      "name": "AUT North Shore Campus (Gym)",
      "city": "Auckland",
      "country": "NZ",
      "address": "AH Building, 90 Akoranga Drive, Northcote, Auckland",
      "lat": -36.79,
      "lng": 174.75,
      "programs": [
        "fam-program"
      ],
      "coaches": [
        "kieran-cordelle"
      ],
      "photo": "",
      "notes": ""
    },
    {
      "id": "auckland-ymca",
      "name": "The Y Auckland",
      "city": "Auckland",
      "country": "NZ",
      "address": "149 Greys Avenue, Auckland Central, Auckland",
      "lat": -36.8545,
      "lng": 174.763,
      "programs": [],
      "coaches": [],
      "photo": "",
      "notes": "Coach assignments pending — Michael to confirm"
    },
    {
      "id": "auckland-uoa",
      "name": "University of Auckland",
      "city": "Auckland",
      "country": "NZ",
      "address": "Building 907, Department of Exercise Sciences, Suiter Street, Newmarket, Auckland",
      "lat": -36.8641,
      "lng": 174.77,
      "programs": [
        "fam-tui"
      ],
      "coaches": [
        "merryn-robertson",
        "michael-hynard"
      ],
      "photo": "",
      "notes": "FAM™TŪI only"
    },
    {
      "id": "christchurch-eaden",
      "name": "Eaden Project",
      "city": "Christchurch",
      "country": "NZ",
      "address": "205a Wordsworth Street, Christchurch Central City, Christchurch 8023",
      "lat": -43.5341,
      "lng": 172.6343,
      "programs": [
        "fam-program",
        "program"
      ],
      "coaches": [
        "shaney-olivier",
        "ollie-smith",
        "skye-churchill"
      ],
      "photo": "",
      "notes": ""
    },
    {
      "id": "tauranga-placeholder",
      "name": "Tauranga Venue",
      "city": "Tauranga",
      "country": "NZ",
      "address": "",
      "lat": -37.6878,
      "lng": 176.1651,
      "programs": [
        "fam-program"
      ],
      "coaches": [
        "diogo-freire",
        "jacqueline-hay"
      ],
      "photo": "",
      "notes": "Placeholder — venue details to be confirmed"
    },
    {
      "id": "dunedin-placeholder",
      "name": "Dunedin Venue",
      "city": "Dunedin",
      "country": "NZ",
      "address": "",
      "lat": -45.8788,
      "lng": 170.5028,
      "programs": [
        "fam-program"
      ],
      "coaches": [
        "connor-dann"
      ],
      "photo": "",
      "notes": "Placeholder — venue details to be confirmed"
    },
    {
      "id": "whangarei-hot",
      "name": "House of Training",
      "city": "Whangārei",
      "country": "NZ",
      "address": "17 Finlayson Street, Whangārei",
      "lat": -35.7256,
      "lng": 174.324,
      "programs": [
        "fam-program"
      ],
      "coaches": [
        "renee-thornley"
      ],
      "photo": "",
      "notes": ""
    },
    {
      "id": "kerikeri-venue",
      "name": "Kerikeri Venue",
      "city": "Kerikeri",
      "country": "NZ",
      "address": "22 Sammaree Place, Kerikeri",
      "lat": -35.2235,
      "lng": 173.955,
      "programs": [
        "fam-jam"
      ],
      "coaches": [
        "zoe-taylor"
      ],
      "photo": "",
      "notes": "FAM™JAM only"
    },
    {
      "id": "bristol-tbc-01",
      "name": "Bristol Venue",
      "city": "Bristol",
      "country": "UK",
      "address": "",
      "lat": 51.4545,
      "lng": -2.5879,
      "programs": [
        "fam-program"
      ],
      "coaches": [
        "becca-percy"
      ],
      "photo": "",
      "notes": "Venue details to be confirmed"
    },
    {
      "id": "explore-wellbeing-city-church",
      "name": "Explore Wellbeing City Church",
      "city": "Auckland",
      "country": "NZ",
      "address": "6/133 Central Park Drive, Henderson, Auckland 0610",
      "lat": -36.853395,
      "lng": 174.63852,
      "programs": [
        "jam"
      ],
      "coaches": [
        "grace-dunn"
      ],
      "photo": "",
      "notes": "",
      "sortOrder": 13
    }
  ]
}